{"type":"FeatureCollection","features":[{"type":"Feature","geometry":{"type":"Point","coordinates":[-71.09416,42.360091]},"properties":{"title":"Massachusetts Institute of Technology (MIT)","icon":"town-hall"}},{"type":"Feature","geometry":{"type":"Point","coordinates":[-122.169719,37.427475]},"properties":{"title":"Stanford University","icon":"town-hall"}},{"type":"Feature","geometry":{"type":"Point","coordinates":[-79.943013,40.442808]},"properties":{"title":"Carnegie Mellon University","icon":"town-hall"}},{"type":"Feature","geometry":{"type":"Point","coordinates":[-122.25854,37.871899]},"properties":{"title":"University of California, Berkeley (UCB)","icon":"town-hall"}},{"type":"Feature","geometry":{"type":"Point","coordinates":[0.114908,52.204267]},"properties":{"title":"University of Cambridge","icon":"town-hall"}},{"type":"Feature","geometry":{"type":"Point","coordinates":[-71.11666,42.377003]},"properties":{"title":"Harvard University","icon":"town-hall"}},{"type":"Feature","geometry":{"type":"Point","coordinates":[-1.254367,51.754816]},"properties":{"title":"University of Oxford","icon":"town-hall"}},{"type":"Feature","geometry":{"type":"Point","coordinates":[-74.651448,40.343989]},"properties":{"title":"Princeton University","icon":"town-hall"}},{"type":"Feature","geometry":{"type":"Point","coordinates":[8.54767,47.376313]},"properties":{"title":"ETH Zurich - Swiss Federal Institute of Technology","icon":"town-hall"}},{"type":"Feature","geometry":{"type":"Point","coordinates":[103.776394,1.296643]},"properties":{"title":"National University of Singapore (NUS)","icon":"town-hall"}},{"type":"Feature","geometry":{"type":"Point","coordinates":[-79.395656,43.662892]},"properties":{"title":"University of Toronto","icon":"town-hall"}},{"type":"Feature","geometry":{"type":"Point","coordinates":[-0.174877,51.4988]},"properties":{"title":"Imperial College London","icon":"town-hall"}},{"type":"Feature","geometry":{"type":"Point","coordinates":[-118.445181,34.068921]},"properties":{"title":"University of California, Los Angeles (UCLA)","icon":"town-hall"}},{"type":"Feature","geometry":{"type":"Point","coordinates":[144.961174,-37.796369]},"properties":{"title":"The University of Melbourne","icon":"town-hall"}},{"type":"Feature","geometry":{"type":"Point","coordinates":[116.326444,39.999667]},"properties":{"title":"Tsinghua University","icon":"town-hall"}},{"type":"Feature","geometry":{"type":"Point","coordinates":[116.305874,39.986913]},"properties":{"title":"Peking University","icon":"town-hall"}},{"type":"Feature","geometry":{"type":"Point","coordinates":[-122.30352,47.655335]},"properties":{"title":"University of Washington","icon":"town-hall"}},{"type":"Feature","geometry":{"type":"Point","coordinates":[139.761989,35.712677]},"properties":{"title":"The University of Tokyo","icon":"town-hall"}},{"type":"Feature","geometry":{"type":"Point","coordinates":[114.265466,22.3364]},"properties":{"title":"The Hong Kong University of Science and Technology","icon":"town-hall"}},{"type":"Feature","geometry":{"type":"Point","coordinates":[103.683135,1.34831]},"properties":{"title":"Nanyang Technological University, Singapore (NTU)","icon":"town-hall"}},{"type":"Feature","geometry":{"type":"Point","coordinates":[-76.473503,42.453449]},"properties":{"title":"Cornell University","icon":"town-hall"}},{"type":"Feature","geometry":{"type":"Point","coordinates":[-3.189241,55.944516]},"properties":{"title":"The University of Edinburgh","icon":"town-hall"}},{"type":"Feature","geometry":{"type":"Point","coordinates":[-123.245994,49.260605]},"properties":{"title":"University of British Columbia","icon":"town-hall"}},{"type":"Feature","geometry":{"type":"Point","coordinates":[6.566758,46.519056]},"properties":{"title":"Ecole Polytechnique Fédérale de Lausanne (EPFL)","icon":"town-hall"}},{"type":"Feature","geometry":{"type":"Point","coordinates":[114.137085,22.282999]},"properties":{"title":"The University of Hong Kong","icon":"town-hall"}},{"type":"Feature","geometry":{"type":"Point","coordinates":[-97.734057,30.284918]},"properties":{"title":"University of Texas at Austin","icon":"town-hall"}},{"type":"Feature","geometry":{"type":"Point","coordinates":[-118.125269,34.137658]},"properties":{"title":"California Institute of Technology (Caltech)","icon":"town-hall"}},{"type":"Feature","geometry":{"type":"Point","coordinates":[-84.396285,33.775618]},"properties":{"title":"Georgia Institute of Technology","icon":"town-hall"}},{"type":"Feature","geometry":{"type":"Point","coordinates":[-73.962573,40.807536]},"properties":{"title":"Columbia University","icon":"town-hall"}},{"type":"Feature","geometry":{"type":"Point","coordinates":[-88.227161,40.101952]},"properties":{"title":"University of Illinois at Urbana-Champaign","icon":"town-hall"}},{"type":"Feature","geometry":{"type":"Point","coordinates":[-80.544858,43.472285]},"properties":{"title":"University of Waterloo","icon":"town-hall"}},{"type":"Feature","geometry":{"type":"Point","coordinates":[-73.996461,40.729513]},"properties":{"title":"New York University (NYU)","icon":"town-hall"}},{"type":"Feature","geometry":{"type":"Point","coordinates":[127.364025,36.369392]},"properties":{"title":"KAIST - Korea Advanced Institute of Science & Technology","icon":"town-hall"}},{"type":"Feature","geometry":{"type":"Point","coordinates":[-72.922343,41.316324]},"properties":{"title":"Yale University","icon":"town-hall"}},{"type":"Feature","geometry":{"type":"Point","coordinates":[114.210932,22.416263]},"properties":{"title":"The Chinese University of Hong Kong (CUHK)","icon":"town-hall"}},{"type":"Feature","geometry":{"type":"Point","coordinates":[149.118527,-35.2777]},"properties":{"title":"The Australian National University","icon":"town-hall"}},{"type":"Feature","geometry":{"type":"Point","coordinates":[-0.13404,51.524559]},"properties":{"title":"UCL (University College London)","icon":"town-hall"}},{"type":"Feature","geometry":{"type":"Point","coordinates":[126.951905,37.459882]},"properties":{"title":"Seoul National University","icon":"town-hall"}},{"type":"Feature","geometry":{"type":"Point","coordinates":[-75.193214,39.952219]},"properties":{"title":"University of Pennsylvania","icon":"town-hall"}},{"type":"Feature","geometry":{"type":"Point","coordinates":[11.56786,48.14966]},"properties":{"title":"Technical University of Munich","icon":"town-hall"}},{"type":"Feature","geometry":{"type":"Point","coordinates":[121.539752,25.01734]},"properties":{"title":"National Taiwan University (NTU)","icon":"town-hall"}},{"type":"Feature","geometry":{"type":"Point","coordinates":[151.231268,-33.917347]},"properties":{"title":"The University of New South Wales (UNSW Sydney)","icon":"town-hall"}},{"type":"Feature","geometry":{"type":"Point","coordinates":[151.187347,-33.888584]},"properties":{"title":"The University of Sydney","icon":"town-hall"}},{"type":"Feature","geometry":{"type":"Point","coordinates":[-117.234014,32.88006]},"properties":{"title":"University of California, San Diego (UCSD)","icon":"town-hall"}},{"type":"Feature","geometry":{"type":"Point","coordinates":[121.433778,31.02522]},"properties":{"title":"Shanghai Jiao Tong University","icon":"town-hall"}},{"type":"Feature","geometry":{"type":"Point","coordinates":[-83.738224,42.278044]},"properties":{"title":"University of Michigan","icon":"town-hall"}},{"type":"Feature","geometry":{"type":"Point","coordinates":[-76.942554,38.986918]},"properties":{"title":"University of Maryland, College Park","icon":"town-hall"}},{"type":"Feature","geometry":{"type":"Point","coordinates":[37.528669,55.703935]},"properties":{"title":"Lomonosov Moscow State University","icon":"town-hall"}},{"type":"Feature","geometry":{"type":"Point","coordinates":[9.227276,45.478107]},"properties":{"title":"Politecnico di Milano","icon":"town-hall"}},{"type":"Feature","geometry":{"type":"Point","coordinates":[-118.285117,34.022352]},"properties":{"title":"University of Southern California","icon":"town-hall"}},{"type":"Feature","geometry":{"type":"Point","coordinates":[10.203012,56.168138]},"properties":{"title":"Aarhus University","icon":"town-hall"}},{"type":"Feature","geometry":{"type":"Point","coordinates":[-71.105399,42.3505]},"properties":{"title":"Boston University","icon":"town-hall"}},{"type":"Feature","geometry":{"type":"Point","coordinates":[114.172002,22.337487]},"properties":{"title":"City University of Hong Kong","icon":"town-hall"}},{"type":"Feature","geometry":{"type":"Point","coordinates":[4.371384,52.000755]},"properties":{"title":"Delft University of Technology","icon":"town-hall"}},{"type":"Feature","geometry":{"type":"Point","coordinates":[-78.938229,36.001426]},"properties":{"title":"Duke University","icon":"town-hall"}},{"type":"Feature","geometry":{"type":"Point","coordinates":[2.345169,48.842206]},"properties":{"title":"Ecole normale supérieure, Paris","icon":"town-hall"}},{"type":"Feature","geometry":{"type":"Point","coordinates":[121.503618,31.29742]},"properties":{"title":"Fudan University","icon":"town-hall"}},{"type":"Feature","geometry":{"type":"Point","coordinates":[72.913268,19.13343]},"properties":{"title":"Indian Institute of Technology Bombay (IITB)","icon":"town-hall"}},{"type":"Feature","geometry":{"type":"Point","coordinates":[77.192628,28.544976]},"properties":{"title":"Indian Institute of Technology Delhi (IITD)","icon":"town-hall"}},{"type":"Feature","geometry":{"type":"Point","coordinates":[-76.620518,39.329901]},"properties":{"title":"Johns Hopkins University","icon":"town-hall"}},{"type":"Feature","geometry":{"type":"Point","coordinates":[4.700295,50.877954]},"properties":{"title":"KU Leuven","icon":"town-hall"}},{"type":"Feature","geometry":{"type":"Point","coordinates":[-0.115997,51.511486]},"properties":{"title":"King's College London","icon":"town-hall"}},{"type":"Feature","geometry":{"type":"Point","coordinates":[8.41703,49.01192]},"properties":{"title":"KIT, Karlsruhe Institute of Technology","icon":"town-hall"}},{"type":"Feature","geometry":{"type":"Point","coordinates":[127.027777,37.590799]},"properties":{"title":"Korea University","icon":"town-hall"}},{"type":"Feature","geometry":{"type":"Point","coordinates":[18.070665,59.349806]},"properties":{"title":"KTH Royal Institute of Technology","icon":"town-hall"}},{"type":"Feature","geometry":{"type":"Point","coordinates":[135.780822,35.026244]},"properties":{"title":"Kyoto University","icon":"town-hall"}},{"type":"Feature","geometry":{"type":"Point","coordinates":[11.582443,48.150942]},"properties":{"title":"Ludwig-Maximilians-Universität München","icon":"town-hall"}},{"type":"Feature","geometry":{"type":"Point","coordinates":[-73.577151,45.504785]},"properties":{"title":"McGill University","icon":"town-hall"}},{"type":"Feature","geometry":{"type":"Point","coordinates":[145.134464,-37.911473]},"properties":{"title":"Monash University","icon":"town-hall"}},{"type":"Feature","geometry":{"type":"Point","coordinates":[120.993232,24.794725]},"properties":{"title":"National Tsing Hua University","icon":"town-hall"}},{"type":"Feature","geometry":{"type":"Point","coordinates":[-77.859908,40.798213]},"properties":{"title":"Pennsylvania State University","icon":"town-hall"}},{"type":"Feature","geometry":{"type":"Point","coordinates":[129.323184,36.013886]},"properties":{"title":"Pohang University of Science And Technology (POSTECH)","icon":"town-hall"}},{"type":"Feature","geometry":{"type":"Point","coordinates":[7.662267,45.062467]},"properties":{"title":"Politecnico di Torino","icon":"town-hall"}},{"type":"Feature","geometry":{"type":"Point","coordinates":[-86.921195,40.423705]},"properties":{"title":"Purdue University","icon":"town-hall"}},{"type":"Feature","geometry":{"type":"Point","coordinates":[6.065687,50.780078]},"properties":{"title":"RWTH Aachen University","icon":"town-hall"}},{"type":"Feature","geometry":{"type":"Point","coordinates":[144.965117,-37.808943]},"properties":{"title":"RMIT University","icon":"town-hall"}},{"type":"Feature","geometry":{"type":"Point","coordinates":[12.514438,41.903763]},"properties":{"title":"Sapienza University of Rome","icon":"town-hall"}},{"type":"Feature","geometry":{"type":"Point","coordinates":[126.993606,37.588227]},"properties":{"title":"Sungkyunkwan University (SKKU)","icon":"town-hall"}},{"type":"Feature","geometry":{"type":"Point","coordinates":[35.023127,32.776778]},"properties":{"title":"Technion - Israel Institute of Technology","icon":"town-hall"}},{"type":"Feature","geometry":{"type":"Point","coordinates":[13.326945,52.512532]},"properties":{"title":"Technische Universität Berlin (TU Berlin)","icon":"town-hall"}},{"type":"Feature","geometry":{"type":"Point","coordinates":[16.368463,48.198655]},"properties":{"title":"Vienna University of Technology","icon":"town-hall"}},{"type":"Feature","geometry":{"type":"Point","coordinates":[114.178419,22.302847]},"properties":{"title":"The Hong Kong Polytechnic University","icon":"town-hall"}},{"type":"Feature","geometry":{"type":"Point","coordinates":[174.769107,-36.852338]},"properties":{"title":"The University of Auckland","icon":"town-hall"}},{"type":"Feature","geometry":{"type":"Point","coordinates":[-2.233884,53.46685]},"properties":{"title":"The University of Manchester","icon":"town-hall"}},{"type":"Feature","geometry":{"type":"Point","coordinates":[153.01203,-27.495431]},"properties":{"title":"The University of Queensland","icon":"town-hall"}},{"type":"Feature","geometry":{"type":"Point","coordinates":[139.68353,35.605123]},"properties":{"title":"Tokyo Institute of Technology","icon":"town-hall"}},{"type":"Feature","geometry":{"type":"Point","coordinates":[-46.730789,-23.561399]},"properties":{"title":"Universidade de São Paulo","icon":"town-hall"}},{"type":"Feature","geometry":{"type":"Point","coordinates":[-47.064721,-22.818439]},"properties":{"title":"Universidade Estadual de Campinas (Unicamp)","icon":"town-hall"}},{"type":"Feature","geometry":{"type":"Point","coordinates":[11.354157,44.496232]},"properties":{"title":"Alma Mater Studiorum - University of Bologna","icon":"town-hall"}},{"type":"Feature","geometry":{"type":"Point","coordinates":[101.654549,3.120107]},"properties":{"title":"Universiti Malaya (UM)","icon":"town-hall"}},{"type":"Feature","geometry":{"type":"Point","coordinates":[100.302518,5.355934]},"properties":{"title":"Universiti Sains Malaysia (USM)","icon":"town-hall"}},{"type":"Feature","geometry":{"type":"Point","coordinates":[103.638183,1.55849]},"properties":{"title":"Universiti Teknologi Malaysia","icon":"town-hall"}},{"type":"Feature","geometry":{"type":"Point","coordinates":[4.955726,52.355818]},"properties":{"title":"University of Amsterdam","icon":"town-hall"}},{"type":"Feature","geometry":{"type":"Point","coordinates":[-117.844296,33.640495]},"properties":{"title":"University of California, Irvine","icon":"town-hall"}},{"type":"Feature","geometry":{"type":"Point","coordinates":[-87.598713,41.788608]},"properties":{"title":"University of Chicago","icon":"town-hall"}},{"type":"Feature","geometry":{"type":"Point","coordinates":[-72.526712,42.391157]},"properties":{"title":"University of Massachusetts Amherst","icon":"town-hall"}},{"type":"Feature","geometry":{"type":"Point","coordinates":[117.26217,31.838698]},"properties":{"title":"University of Science and Technology of China","icon":"town-hall"}},{"type":"Feature","geometry":{"type":"Point","coordinates":[151.200494,-33.883238]},"properties":{"title":"University of Technology Sydney","icon":"town-hall"}},{"type":"Feature","geometry":{"type":"Point","coordinates":[-89.412487,43.076592]},"properties":{"title":"University of Wisconsin-Madison","icon":"town-hall"}},{"type":"Feature","geometry":{"type":"Point","coordinates":[126.938572,37.565784]},"properties":{"title":"Yonsei University","icon":"town-hall"}},{"type":"Feature","geometry":{"type":"Point","coordinates":[120.123439,30.263608]},"properties":{"title":"Zhejiang University","icon":"town-hall"}},{"type":"Feature","geometry":{"type":"Point","coordinates":[-71.402548,41.826772]},"properties":{"title":"Brown University","icon":"town-hall"}},{"type":"Feature","geometry":{"type":"Point","coordinates":[2.211292,48.714297]},"properties":{"title":"Ecole Polytechnique","icon":"town-hall"}},{"type":"Feature","geometry":{"type":"Point","coordinates":[5.490715,51.44861]},"properties":{"title":"Eindhoven University of Technology","icon":"town-hall"}},{"type":"Feature","geometry":{"type":"Point","coordinates":[127.045322,37.557232]},"properties":{"title":"Hanyang University","icon":"town-hall"}},{"type":"Feature","geometry":{"type":"Point","coordinates":[13.393655,52.517883]},"properties":{"title":"Humboldt-Universität zu Berlin","icon":"town-hall"}},{"type":"Feature","geometry":{"type":"Point","coordinates":[80.242025,13.006334]},"properties":{"title":"Indian Institute of Technology Madras (IITM)","icon":"town-hall"}},{"type":"Feature","geometry":{"type":"Point","coordinates":[-86.513017,39.176613]},"properties":{"title":"Indiana University Bloomington","icon":"town-hall"}},{"type":"Feature","geometry":{"type":"Point","coordinates":[-2.787729,54.010394]},"properties":{"title":"Lancaster University","icon":"town-hall"}},{"type":"Feature","geometry":{"type":"Point","coordinates":[-0.117377,51.514408]},"properties":{"title":"London School of Economics and Political Science (LSE)","icon":"town-hall"}},{"type":"Feature","geometry":{"type":"Point","coordinates":[118.77896,32.056839]},"properties":{"title":"Nanjing University","icon":"town-hall"}},{"type":"Feature","geometry":{"type":"Point","coordinates":[120.218095,22.999687]},"properties":{"title":"National Cheng Kung University (NCKU)","icon":"town-hall"}},{"type":"Feature","geometry":{"type":"Point","coordinates":[120.996735,24.785915]},"properties":{"title":"National Chiao Tung University","icon":"town-hall"}},{"type":"Feature","geometry":{"type":"Point","coordinates":[121.541651,25.013068]},"properties":{"title":"National Taiwan University of Science and Technology (Taiwan Tech)","icon":"town-hall"}},{"type":"Feature","geometry":{"type":"Point","coordinates":[23.782707,37.978377]},"properties":{"title":"National Technical University of Athens","icon":"town-hall"}},{"type":"Feature","geometry":{"type":"Point","coordinates":[-78.682095,35.784663]},"properties":{"title":"North Carolina State University","icon":"town-hall"}},{"type":"Feature","geometry":{"type":"Point","coordinates":[-87.675267,42.056459]},"properties":{"title":"Northwestern University","icon":"town-hall"}},{"type":"Feature","geometry":{"type":"Point","coordinates":[-83.030914,40.01419]},"properties":{"title":"The Ohio State University","icon":"town-hall"}},{"type":"Feature","geometry":{"type":"Point","coordinates":[135.524468,34.822014]},"properties":{"title":"Osaka University","icon":"town-hall"}},{"type":"Feature","geometry":{"type":"Point","coordinates":[-3.71928,40.448637]},"properties":{"title":"Politécnica de Madrid","icon":"town-hall"}},{"type":"Feature","geometry":{"type":"Point","coordinates":[153.028423,-27.477356]},"properties":{"title":"Queensland University of Technology (QUT)","icon":"town-hall"}},{"type":"Feature","geometry":{"type":"Point","coordinates":[-95.401831,29.717394]},"properties":{"title":"Rice University","icon":"town-hall"}},{"type":"Feature","geometry":{"type":"Point","coordinates":[-122.919883,49.278094]},"properties":{"title":"Simon Fraser University","icon":"town-hall"}},{"type":"Feature","geometry":{"type":"Point","coordinates":[8.656873,49.8751]},"properties":{"title":"Technische Universität Darmstadt","icon":"town-hall"}},{"type":"Feature","geometry":{"type":"Point","coordinates":[34.804388,32.113314]},"properties":{"title":"Tel Aviv University","icon":"town-hall"}},{"type":"Feature","geometry":{"type":"Point","coordinates":[138.606228,-34.920603]},"properties":{"title":"The University of Adelaide","icon":"town-hall"}},{"type":"Feature","geometry":{"type":"Point","coordinates":[-1.56147,52.379252]},"properties":{"title":"The University of Warwick","icon":"town-hall"}},{"type":"Feature","geometry":{"type":"Point","coordinates":[-70.650928,-33.44452]},"properties":{"title":"Universidad de Chile","icon":"town-hall"}},{"type":"Feature","geometry":{"type":"Point","coordinates":[-99.184368,19.31889]},"properties":{"title":"Universidad Nacional Autónoma de México  (UNAM)","icon":"town-hall"}},{"type":"Feature","geometry":{"type":"Point","coordinates":[9.194584,45.460144]},"properties":{"title":"University of Milan","icon":"town-hall"}},{"type":"Feature","geometry":{"type":"Point","coordinates":[10.398859,43.716724]},"properties":{"title":"University of Pisa","icon":"town-hall"}},{"type":"Feature","geometry":{"type":"Point","coordinates":[7.040975,49.255028]},"properties":{"title":"Universität des Saarlandes","icon":"town-hall"}},{"type":"Feature","geometry":{"type":"Point","coordinates":[2.11328,41.388004]},"properties":{"title":"Universitat Politècnica de Catalunya","icon":"town-hall"}},{"type":"Feature","geometry":{"type":"Point","coordinates":[4.615591,50.669687]},"properties":{"title":"Université catholique de Louvain (UCL)","icon":"town-hall"}},{"type":"Feature","geometry":{"type":"Point","coordinates":[-73.613759,45.505616]},"properties":{"title":"Université de Montréal","icon":"town-hall"}},{"type":"Feature","geometry":{"type":"Point","coordinates":[101.777423,2.929997]},"properties":{"title":"Universiti Kebangsaan Malaysia (UKM)","icon":"town-hall"}},{"type":"Feature","geometry":{"type":"Point","coordinates":[101.71629,2.991686]},"properties":{"title":"Universiti Putra Malaysia (UPM)","icon":"town-hall"}},{"type":"Feature","geometry":{"type":"Point","coordinates":[-6.220654,53.305344]},"properties":{"title":"University College Dublin","icon":"town-hall"}},{"type":"Feature","geometry":{"type":"Point","coordinates":[-113.526319,53.523219]},"properties":{"title":"University of Alberta","icon":"town-hall"}},{"type":"Feature","geometry":{"type":"Point","coordinates":[-1.930513,52.450817]},"properties":{"title":"University of Birmingham","icon":"town-hall"}},{"type":"Feature","geometry":{"type":"Point","coordinates":[-2.602979,51.458417]},"properties":{"title":"University of Bristol","icon":"town-hall"}},{"type":"Feature","geometry":{"type":"Point","coordinates":[-121.761712,38.538232]},"properties":{"title":"University of California, Davis","icon":"town-hall"}},{"type":"Feature","geometry":{"type":"Point","coordinates":[12.57241,55.68023]},"properties":{"title":"University of Copenhagen","icon":"town-hall"}},{"type":"Feature","geometry":{"type":"Point","coordinates":[-4.288201,55.872121]},"properties":{"title":"University of Glasgow","icon":"town-hall"}},{"type":"Feature","geometry":{"type":"Point","coordinates":[24.951042,60.172635]},"properties":{"title":"University of Helsinki","icon":"town-hall"}},{"type":"Feature","geometry":{"type":"Point","coordinates":[-9.15851,38.752504]},"properties":{"title":"University of Lisbon","icon":"town-hall"}},{"type":"Feature","geometry":{"type":"Point","coordinates":[-93.227729,44.97399]},"properties":{"title":"University of Minnesota","icon":"town-hall"}},{"type":"Feature","geometry":{"type":"Point","coordinates":[-79.046913,35.904912]},"properties":{"title":"University of North Carolina, Chapel Hill","icon":"town-hall"}},{"type":"Feature","geometry":{"type":"Point","coordinates":[-1.396638,50.935742]},"properties":{"title":"University of Southampton","icon":"town-hall"}},{"type":"Feature","geometry":{"type":"Point","coordinates":[8.550981,47.374322]},"properties":{"title":"University of Zurich","icon":"town-hall"}},{"type":"Feature","geometry":{"type":"Point","coordinates":[17.630009,59.8509]},"properties":{"title":"Uppsala University","icon":"town-hall"}},{"type":"Feature","geometry":{"type":"Point","coordinates":[4.86572,52.333757]},"properties":{"title":"Vrije Universiteit Amsterdam","icon":"town-hall"}},{"type":"Feature","geometry":{"type":"Point","coordinates":[139.719648,35.708733]},"properties":{"title":"Waseda University","icon":"town-hall"}},{"type":"Feature","geometry":{"type":"Point","coordinates":[9.981853,57.014567]},"properties":{"title":"Aalborg University","icon":"town-hall"}},{"type":"Feature","geometry":{"type":"Point","coordinates":[24.827682,60.186669]},"properties":{"title":"Aalto University","icon":"town-hall"}},{"type":"Feature","geometry":{"type":"Point","coordinates":[-112.073122,33.453538]},"properties":{"title":"Arizona State University","icon":"town-hall"}},{"type":"Feature","geometry":{"type":"Point","coordinates":[2.163949,48.708821]},"properties":{"title":"CentraleSupélec","icon":"town-hall"}},{"type":"Feature","geometry":{"type":"Point","coordinates":[11.977758,57.688368]},"properties":{"title":"Chalmers University of Technology","icon":"town-hall"}},{"type":"Feature","geometry":{"type":"Point","coordinates":[126.633425,45.747047]},"properties":{"title":"Harbin Institute of Technology","icon":"town-hall"}},{"type":"Feature","geometry":{"type":"Point","coordinates":[35.241401,31.794558]},"properties":{"title":"The Hebrew University of Jerusalem","icon":"town-hall"}},{"type":"Feature","geometry":{"type":"Point","coordinates":[77.567142,13.02186]},"properties":{"title":"Indian Institute of Science (IISc) Bangalore","icon":"town-hall"}},{"type":"Feature","geometry":{"type":"Point","coordinates":[80.2329,26.512339]},"properties":{"title":"Indian Institute of Technology Kanpur (IITK)","icon":"town-hall"}},{"type":"Feature","geometry":{"type":"Point","coordinates":[87.310531,22.314927]},"properties":{"title":"Indian Institute of Technology Kharagpur (IIT-KGP)","icon":"town-hall"}},{"type":"Feature","geometry":{"type":"Point","coordinates":[-99.134559,19.501355]},"properties":{"title":"Instituto Politécnico Nacional (IPN)","icon":"town-hall"}},{"type":"Feature","geometry":{"type":"Point","coordinates":[139.742938,35.648964]},"properties":{"title":"Keio University","icon":"town-hall"}},{"type":"Feature","geometry":{"type":"Point","coordinates":[130.425045,33.626658]},"properties":{"title":"Kyushu University","icon":"town-hall"}},{"type":"Feature","geometry":{"type":"Point","coordinates":[13.203493,55.711948]},"properties":{"title":"Lund University","icon":"town-hall"}},{"type":"Feature","geometry":{"type":"Point","coordinates":[-84.482172,42.701848]},"properties":{"title":"Michigan State University","icon":"town-hall"}},{"type":"Feature","geometry":{"type":"Point","coordinates":[120.265843,22.626425]},"properties":{"title":"National Sun Yat-sen University","icon":"town-hall"}},{"type":"Feature","geometry":{"type":"Point","coordinates":[-70.640793,-33.441128]},"properties":{"title":"Pontificia Universidad Católica de Chile (UC)","icon":"town-hall"}},{"type":"Feature","geometry":{"type":"Point","coordinates":[-0.040374,51.524067]},"properties":{"title":"Queen Mary University of London","icon":"town-hall"}},{"type":"Feature","geometry":{"type":"Point","coordinates":[-76.495141,44.225279]},"properties":{"title":"Queen's University at Kingston","icon":"town-hall"}},{"type":"Feature","geometry":{"type":"Point","coordinates":[7.086523,50.726771]},"properties":{"title":"Rheinische Friedrich-Wilhelms-Universität Bonn","icon":"town-hall"}},{"type":"Feature","geometry":{"type":"Point","coordinates":[8.670249,49.41914]},"properties":{"title":"Ruprecht-Karls-Universitaet Heidelberg","icon":"town-hall"}},{"type":"Feature","geometry":{"type":"Point","coordinates":[30.29892,59.941894]},"properties":{"title":"Saint Petersburg State University","icon":"town-hall"}},{"type":"Feature","geometry":{"type":"Point","coordinates":[12.521381,55.785574]},"properties":{"title":"Technical University of Denmark","icon":"town-hall"}},{"type":"Feature","geometry":{"type":"Point","coordinates":[13.728996,51.029273]},"properties":{"title":"Technische Universität Dresden","icon":"town-hall"}},{"type":"Feature","geometry":{"type":"Point","coordinates":[-96.336499,30.618531]},"properties":{"title":"Texas A&M University","icon":"town-hall"}},{"type":"Feature","geometry":{"type":"Point","coordinates":[-1.195158,52.938636]},"properties":{"title":"The University of Nottingham","icon":"town-hall"}},{"type":"Feature","geometry":{"type":"Point","coordinates":[-1.487947,53.380941]},"properties":{"title":"The University of Sheffield","icon":"town-hall"}},{"type":"Feature","geometry":{"type":"Point","coordinates":[115.81991,-31.981179]},"properties":{"title":"The University of Western Australia","icon":"town-hall"}},{"type":"Feature","geometry":{"type":"Point","coordinates":[140.874074,38.253834]},"properties":{"title":"Tohoku University","icon":"town-hall"}},{"type":"Feature","geometry":{"type":"Point","coordinates":[-3.727079,40.316966]},"properties":{"title":"Universidad Carlos III de Madrid (UC3M)","icon":"town-hall"}},{"type":"Feature","geometry":{"type":"Point","coordinates":[-3.728587,40.447825]},"properties":{"title":"University Complutense Madrid","icon":"town-hall"}},{"type":"Feature","geometry":{"type":"Point","coordinates":[-43.966384,-19.869088]},"properties":{"title":"Universidade Federal de Minas Gerais","icon":"town-hall"}},{"type":"Feature","geometry":{"type":"Point","coordinates":[2.16402,41.386608]},"properties":{"title":"Universitat de Barcelona","icon":"town-hall"}},{"type":"Feature","geometry":{"type":"Point","coordinates":[9.172783,48.781569]},"properties":{"title":"Universität Stuttgart","icon":"town-hall"}},{"type":"Feature","geometry":{"type":"Point","coordinates":[16.36005,48.213185]},"properties":{"title":"University of Vienna","icon":"town-hall"}},{"type":"Feature","geometry":{"type":"Point","coordinates":[-119.848947,34.413963]},"properties":{"title":"University of California, Santa Barbara (UCSB)","icon":"town-hall"}},{"type":"Feature","geometry":{"type":"Point","coordinates":[172.583923,-43.523538]},"properties":{"title":"University of Canterbury","icon":"town-hall"}},{"type":"Feature","geometry":{"type":"Point","coordinates":[6.145116,46.199444]},"properties":{"title":"University of Geneva","icon":"town-hall"}},{"type":"Feature","geometry":{"type":"Point","coordinates":[-87.658107,41.87496]},"properties":{"title":"University of Illinois, Chicago (UIC)","icon":"town-hall"}},{"type":"Feature","geometry":{"type":"Point","coordinates":[10.72175,59.939959]},"properties":{"title":"University of Oslo","icon":"town-hall"}},{"type":"Feature","geometry":{"type":"Point","coordinates":[170.514423,-45.864683]},"properties":{"title":"University of Otago","icon":"town-hall"}},{"type":"Feature","geometry":{"type":"Point","coordinates":[-78.507977,38.033553]},"properties":{"title":"University of Virginia","icon":"town-hall"}},{"type":"Feature","geometry":{"type":"Point","coordinates":[-1.056167,53.945533]},"properties":{"title":"University of York","icon":"town-hall"}},{"type":"Feature","geometry":{"type":"Point","coordinates":[5.122602,52.090153]},"properties":{"title":"Utrecht University","icon":"town-hall"}},{"type":"Feature","geometry":{"type":"Point","coordinates":[174.768662,-41.290402]},"properties":{"title":"Victoria University of Wellington","icon":"town-hall"}},{"type":"Feature","geometry":{"type":"Point","coordinates":[-80.423417,37.228384]},"properties":{"title":"Virginia Polytechnic Institute and State University","icon":"town-hall"}},{"type":"Feature","geometry":{"type":"Point","coordinates":[114.364322,30.536048]},"properties":{"title":"Wuhan University","icon":"town-hall"}},{"type":"Feature","geometry":{"type":"Point","coordinates":[108.98371,34.250575]},"properties":{"title":"Xi’an Jiaotong University","icon":"town-hall"}},{"type":"Feature","geometry":{"type":"Point","coordinates":[116.318567,39.960389]},"properties":{"title":"Beijing Institute of Technology","icon":"town-hall"}},{"type":"Feature","geometry":{"type":"Point","coordinates":[-3.178864,51.486627]},"properties":{"title":"Cardiff University","icon":"town-hall"}},{"type":"Feature","geometry":{"type":"Point","coordinates":[115.89448,-32.003293]},"properties":{"title":"Curtin University","icon":"town-hall"}},{"type":"Feature","geometry":{"type":"Point","coordinates":[14.391284,50.103036]},"properties":{"title":"Czech Technical University in Prague","icon":"town-hall"}},{"type":"Feature","geometry":{"type":"Point","coordinates":[145.110011,-37.844308]},"properties":{"title":"Deakin University","icon":"town-hall"}},{"type":"Feature","geometry":{"type":"Point","coordinates":[13.289679,52.452526]},"properties":{"title":"Freie Universitaet Berlin","icon":"town-hall"}},{"type":"Feature","geometry":{"type":"Point","coordinates":[114.413666,30.507905]},"properties":{"title":"Huazhong University of Science and Technology","icon":"town-hall"}},{"type":"Feature","geometry":{"type":"Point","coordinates":[-87.627006,41.834873]},"properties":{"title":"Illinois Institute of Technology","icon":"town-hall"}},{"type":"Feature","geometry":{"type":"Point","coordinates":[14.32096,48.335837]},"properties":{"title":"Johannes Kepler University Linz","icon":"town-hall"}},{"type":"Feature","geometry":{"type":"Point","coordinates":[50.144565,26.310468]},"properties":{"title":"King Fahd University of Petroleum & Minerals","icon":"town-hall"}},{"type":"Feature","geometry":{"type":"Point","coordinates":[46.619108,24.716241]},"properties":{"title":"King Saud University","icon":"town-hall"}},{"type":"Feature","geometry":{"type":"Point","coordinates":[127.052544,37.596195]},"properties":{"title":"Kyung Hee University","icon":"town-hall"}},{"type":"Feature","geometry":{"type":"Point","coordinates":[151.11265,-33.773824]},"properties":{"title":"Macquarie University","icon":"town-hall"}},{"type":"Feature","geometry":{"type":"Point","coordinates":[-79.919225,43.260879]},"properties":{"title":"McMaster University","icon":"town-hall"}},{"type":"Feature","geometry":{"type":"Point","coordinates":[23.778687,37.968196]},"properties":{"title":"National and Kapodistrian University of Athens","icon":"town-hall"}},{"type":"Feature","geometry":{"type":"Point","coordinates":[121.192516,24.969481]},"properties":{"title":"National Central University","icon":"town-hall"}},{"type":"Feature","geometry":{"type":"Point","coordinates":[-9.061603,53.276645]},"properties":{"title":"National University of Ireland Galway","icon":"town-hall"}},{"type":"Feature","geometry":{"type":"Point","coordinates":[-1.614661,54.979187]},"properties":{"title":"Newcastle University","icon":"town-hall"}},{"type":"Feature","geometry":{"type":"Point","coordinates":[-71.089172,42.339807]},"properties":{"title":"Northeastern University","icon":"town-hall"}},{"type":"Feature","geometry":{"type":"Point","coordinates":[10.402077,63.419499]},"properties":{"title":"Norwegian University of Science And Technology","icon":"town-hall"}},{"type":"Feature","geometry":{"type":"Point","coordinates":[-74.447399,40.500819]},"properties":{"title":"Rutgers University - New Brunswick","icon":"town-hall"}},{"type":"Feature","geometry":{"type":"Point","coordinates":[121.393089,31.314921]},"properties":{"title":"Shanghai University","icon":"town-hall"}},{"type":"Feature","geometry":{"type":"Point","coordinates":[103.852118,1.296568]},"properties":{"title":"Singapore Management University","icon":"town-hall"}},{"type":"Feature","geometry":{"type":"Point","coordinates":[113.298829,23.096378]},"properties":{"title":"Sun Yat-sen University","icon":"town-hall"}},{"type":"Feature","geometry":{"type":"Point","coordinates":[145.038955,-37.82215]},"properties":{"title":"Swinburne University of Technology","icon":"town-hall"}},{"type":"Feature","geometry":{"type":"Point","coordinates":[7.412839,51.492698]},"properties":{"title":"TU Dortmund University","icon":"town-hall"}},{"type":"Feature","geometry":{"type":"Point","coordinates":[15.450342,47.069274]},"properties":{"title":"Graz University of Technology","icon":"town-hall"}},{"type":"Feature","geometry":{"type":"Point","coordinates":[-100.28954,25.651565]},"properties":{"title":"Instituto Tecnológico y de Estudios Superiores de Monterrey","icon":"town-hall"}},{"type":"Feature","geometry":{"type":"Point","coordinates":[2.346419,48.826294]},"properties":{"title":"TELECOM ParisTech","icon":"town-hall"}},{"type":"Feature","geometry":{"type":"Point","coordinates":[-6.254572,53.343793]},"properties":{"title":"Trinity College Dublin, The University of Dublin","icon":"town-hall"}},{"type":"Feature","geometry":{"type":"Point","coordinates":[-58.396212,-34.588484]},"properties":{"title":"Universidad de Buenos Aires (UBA)","icon":"town-hall"}},{"type":"Feature","geometry":{"type":"Point","coordinates":[-43.175364,-22.954141]},"properties":{"title":"Universidade Federal do Rio de Janeiro","icon":"town-hall"}},{"type":"Feature","geometry":{"type":"Point","coordinates":[-51.21857,-30.033841]},"properties":{"title":"Universidade Federal do Rio Grande Do Sul","icon":"town-hall"}},{"type":"Feature","geometry":{"type":"Point","coordinates":[11.877446,45.406766]},"properties":{"title":"Università di Padova","icon":"town-hall"}},{"type":"Feature","geometry":{"type":"Point","coordinates":[11.123117,46.066797]},"properties":{"title":"University of Trento","icon":"town-hall"}},{"type":"Feature","geometry":{"type":"Point","coordinates":[7.84595,47.993544]},"properties":{"title":"Albert-Ludwigs-Universitaet Freiburg","icon":"town-hall"}},{"type":"Feature","geometry":{"type":"Point","coordinates":[2.357499,48.847104]},"properties":{"title":"Université Pierre et Marie Curie (UPMC)","icon":"town-hall"}},{"type":"Feature","geometry":{"type":"Point","coordinates":[-8.493274,51.89211]},"properties":{"title":"University College Cork","icon":"town-hall"}},{"type":"Feature","geometry":{"type":"Point","coordinates":[-110.950109,32.231885]},"properties":{"title":"The University of Arizona","icon":"town-hall"}},{"type":"Feature","geometry":{"type":"Point","coordinates":[-114.135801,51.07816]},"properties":{"title":"University of Calgary","icon":"town-hall"}},{"type":"Feature","geometry":{"type":"Point","coordinates":[-105.265942,40.007581]},"properties":{"title":"University of Colorado Boulder","icon":"town-hall"}},{"type":"Feature","geometry":{"type":"Point","coordinates":[6.562987,53.219263]},"properties":{"title":"University of Groningen","icon":"town-hall"}},{"type":"Feature","geometry":{"type":"Point","coordinates":[151.704178,-32.892772]},"properties":{"title":"The University of Newcastle, Australia (UON)","icon":"town-hall"}},{"type":"Feature","geometry":{"type":"Point","coordinates":[-79.960835,40.444353]},"properties":{"title":"University of Pittsburgh","icon":"town-hall"}},{"type":"Feature","geometry":{"type":"Point","coordinates":[-8.6157,41.146548]},"properties":{"title":"University of Porto","icon":"town-hall"}},{"type":"Feature","geometry":{"type":"Point","coordinates":[138.606667,-34.920165]},"properties":{"title":"University of South Australia","icon":"town-hall"}},{"type":"Feature","geometry":{"type":"Point","coordinates":[-123.311693,48.463407]},"properties":{"title":"University of Victoria","icon":"town-hall"}},{"type":"Feature","geometry":{"type":"Point","coordinates":[175.318458,-37.786861]},"properties":{"title":"University of Waikato","icon":"town-hall"}},{"type":"Feature","geometry":{"type":"Point","coordinates":[150.87843,-34.405404]},"properties":{"title":"University of Wollongong","icon":"town-hall"}},{"type":"Feature","geometry":{"type":"Point","coordinates":[34.808031,31.903754]},"properties":{"title":"Weizmann Institute of Science","icon":"town-hall"}},{"type":"Feature","geometry":{"type":"Point","coordinates":[-81.273734,43.009597]},"properties":{"title":"The University of Western Ontario","icon":"town-hall"}},{"type":"Feature","geometry":{"type":"Point","coordinates":[174.767319,-36.853219]},"properties":{"title":"Auckland University of Technology (AUT)","icon":"town-hall"}},{"type":"Feature","geometry":{"type":"Point","coordinates":[37.685595,55.765924]},"properties":{"title":"Bauman Moscow State Technical University","icon":"town-hall"}},{"type":"Feature","geometry":{"type":"Point","coordinates":[116.347256,39.980955]},"properties":{"title":"Beihang University (former BUAA)","icon":"town-hall"}},{"type":"Feature","geometry":{"type":"Point","coordinates":[116.366262,39.961954]},"properties":{"title":"Beijing Normal University","icon":"town-hall"}},{"type":"Feature","geometry":{"type":"Point","coordinates":[116.479379,39.871716]},"properties":{"title":"Beijing University of Technology","icon":"town-hall"}},{"type":"Feature","geometry":{"type":"Point","coordinates":[29.05104,41.084757]},"properties":{"title":"Bogaziçi Üniversitesi","icon":"town-hall"}},{"type":"Feature","geometry":{"type":"Point","coordinates":[-0.469211,51.533158]},"properties":{"title":"Brunel University London","icon":"town-hall"}},{"type":"Feature","geometry":{"type":"Point","coordinates":[14.423489,50.087111]},"properties":{"title":"Charles University","icon":"town-hall"}},{"type":"Feature","geometry":{"type":"Point","coordinates":[100.532053,13.738378]},"properties":{"title":"Chulalongkorn University","icon":"town-hall"}},{"type":"Feature","geometry":{"type":"Point","coordinates":[-122.636887,45.570191]},"properties":{"title":"Concordia University","icon":"town-hall"}},{"type":"Feature","geometry":{"type":"Point","coordinates":[-72.288693,43.704441]},"properties":{"title":"Dartmouth College","icon":"town-hall"}},{"type":"Feature","geometry":{"type":"Point","coordinates":[-6.256787,53.385062]},"properties":{"title":"Dublin City University","icon":"town-hall"}},{"type":"Feature","geometry":{"type":"Point","coordinates":[39.185841,21.52782]},"properties":{"title":"King Abdulaziz University (KAU)","icon":"town-hall"}},{"type":"Feature","geometry":{"type":"Point","coordinates":[4.485209,52.157148]},"properties":{"title":"Leiden University","icon":"town-hall"}},{"type":"Feature","geometry":{"type":"Point","coordinates":[15.576007,58.397836]},"properties":{"title":"Linköping University","icon":"town-hall"}},{"type":"Feature","geometry":{"type":"Point","coordinates":[32.780328,39.889995]},"properties":{"title":"Middle East Technical University","icon":"town-hall"}},{"type":"Feature","geometry":{"type":"Point","coordinates":[37.518514,55.929423]},"properties":{"title":"Moscow Institute of Physics and Technology (MIPT / Moscow Phystech)","icon":"town-hall"}},{"type":"Feature","geometry":{"type":"Point","coordinates":[101.642058,2.927638]},"properties":{"title":"Multimedia University (MMU)","icon":"town-hall"}},{"type":"Feature","geometry":{"type":"Point","coordinates":[136.967573,35.153491]},"properties":{"title":"Nagoya University","icon":"town-hall"}},{"type":"Feature","geometry":{"type":"Point","coordinates":[120.675326,24.123552]},"properties":{"title":"National Chung Hsing University","icon":"town-hall"}},{"type":"Feature","geometry":{"type":"Point","coordinates":[72.990474,33.642537]},"properties":{"title":"National University of Sciences And Technology (NUST) Islamabad","icon":"town-hall"}},{"type":"Feature","geometry":{"type":"Point","coordinates":[83.094388,54.847746]},"properties":{"title":"Novosibirsk State University","icon":"town-hall"}},{"type":"Feature","geometry":{"type":"Point","coordinates":[-43.233355,-22.979612]},"properties":{"title":"Pontifícia Universidade Católica do Rio de Janeiro","icon":"town-hall"}},{"type":"Feature","geometry":{"type":"Point","coordinates":[-5.934049,54.584409]},"properties":{"title":"Queen's University Belfast","icon":"town-hall"}},{"type":"Feature","geometry":{"type":"Point","coordinates":[-73.678803,42.730172]},"properties":{"title":"Rensselaer Polytechnic Institute","icon":"town-hall"}},{"type":"Feature","geometry":{"type":"Point","coordinates":[-0.563063,51.425673]},"properties":{"title":"Royal Holloway University of London","icon":"town-hall"}},{"type":"Feature","geometry":{"type":"Point","coordinates":[126.940753,37.551336]},"properties":{"title":"Sogang University","icon":"town-hall"}},{"type":"Feature","geometry":{"type":"Point","coordinates":[18.059268,59.362765]},"properties":{"title":"Stockholm University","icon":"town-hall"}},{"type":"Feature","geometry":{"type":"Point","coordinates":[-3.600767,37.183853]},"properties":{"title":"University of Granada","icon":"town-hall"}},{"type":"Feature","geometry":{"type":"Point","coordinates":[14.257956,40.845358]},"properties":{"title":"University of Naples - Federico II","icon":"town-hall"}},{"type":"Feature","geometry":{"type":"Point","coordinates":[-71.052188,48.4199]},"properties":{"title":"Université du Québec","icon":"town-hall"}},{"type":"Feature","geometry":{"type":"Point","coordinates":[5.769462,45.193649]},"properties":{"title":"Université Grenoble-Alpes","icon":"town-hall"}},{"type":"Feature","geometry":{"type":"Point","coordinates":[4.382222,50.813207]},"properties":{"title":"Universite libre de Bruxelles","icon":"town-hall"}},{"type":"Feature","geometry":{"type":"Point","coordinates":[2.176484,48.697685]},"properties":{"title":"Université Paris-Sud","icon":"town-hall"}},{"type":"Feature","geometry":{"type":"Point","coordinates":[101.503761,3.069609]},"properties":{"title":"Universiti Teknologi MARA - UiTM","icon":"town-hall"}},{"type":"Feature","geometry":{"type":"Point","coordinates":[100.969645,4.382092]},"properties":{"title":"Universiti Teknologi Petronas (Petronas)","icon":"town-hall"}},{"type":"Feature","geometry":{"type":"Point","coordinates":[-117.328064,33.973706]},"properties":{"title":"University of California, Riverside","icon":"town-hall"}},{"type":"Feature","geometry":{"type":"Point","coordinates":[-122.060872,36.991386]},"properties":{"title":"University of California, Santa Cruz","icon":"town-hall"}},{"type":"Feature","geometry":{"type":"Point","coordinates":[-8.424151,40.208907]},"properties":{"title":"University of Coimbra","icon":"town-hall"}},{"type":"Feature","geometry":{"type":"Point","coordinates":[-82.35493,29.643632]},"properties":{"title":"University of Florida","icon":"town-hall"}},{"type":"Feature","geometry":{"type":"Point","coordinates":[3.727918,51.046562]},"properties":{"title":"Ghent University","icon":"town-hall"}},{"type":"Feature","geometry":{"type":"Point","coordinates":[-1.555033,53.806682]},"properties":{"title":"University of Leeds","icon":"town-hall"}},{"type":"Feature","geometry":{"type":"Point","coordinates":[-2.965572,53.405936]},"properties":{"title":"University of Liverpool","icon":"town-hall"}},{"type":"Feature","geometry":{"type":"Point","coordinates":[-75.683133,45.423106]},"properties":{"title":"University of Ottawa","icon":"town-hall"}},{"type":"Feature","geometry":{"type":"Point","coordinates":[-0.590483,51.242301]},"properties":{"title":"University of Surrey","icon":"town-hall"}},{"type":"Feature","geometry":{"type":"Point","coordinates":[21.018601,52.240346]},"properties":{"title":"University of Warsaw","icon":"town-hall"}},{"type":"Feature","geometry":{"type":"Point","coordinates":[-86.802655,36.144703]},"properties":{"title":"Vanderbilt University","icon":"town-hall"}},{"type":"Feature","geometry":{"type":"Point","coordinates":[4.394886,50.821658]},"properties":{"title":"Vrije Universiteit Brussel (VUB)","icon":"town-hall"}},{"type":"Feature","geometry":{"type":"Point","coordinates":[-79.501868,43.773454]},"properties":{"title":"York University","icon":"town-hall"}},{"type":"Feature","geometry":{"type":"Point","coordinates":[22.959222,40.630828]},"properties":{"title":"Aristotle University of Thessaloniki","icon":"town-hall"}},{"type":"Feature","geometry":{"type":"Point","coordinates":[116.343155,39.952221]},"properties":{"title":"Beijing Jiaotong University","icon":"town-hall"}},{"type":"Feature","geometry":{"type":"Point","coordinates":[116.358103,39.962796]},"properties":{"title":"Beijing University of Posts and Telecommunications","icon":"town-hall"}},{"type":"Feature","geometry":{"type":"Point","coordinates":[34.801461,31.262218]},"properties":{"title":"Ben Gurion University of The Negev","icon":"town-hall"}},{"type":"Feature","geometry":{"type":"Point","coordinates":[16.603317,49.20172]},"properties":{"title":"Brno University of Technology","icon":"town-hall"}},{"type":"Feature","geometry":{"type":"Point","coordinates":[19.055483,47.481326]},"properties":{"title":"Budapest University of Technology and Economics","icon":"town-hall"}},{"type":"Feature","geometry":{"type":"Point","coordinates":[-0.101594,51.528039]},"properties":{"title":"City, University of London","icon":"town-hall"}},{"type":"Feature","geometry":{"type":"Point","coordinates":[9.043774,48.529478]},"properties":{"title":"Eberhard Karls Universität Tübingen","icon":"town-hall"}},{"type":"Feature","geometry":{"type":"Point","coordinates":[9.9374,51.540812]},"properties":{"title":"University of Göttingen","icon":"town-hall"}},{"type":"Feature","geometry":{"type":"Point","coordinates":[141.340013,43.077957]},"properties":{"title":"Hokkaido University","icon":"town-hall"}},{"type":"Feature","geometry":{"type":"Point","coordinates":[114.18186,22.338084]},"properties":{"title":"Hong Kong Baptist University","icon":"town-hall"}},{"type":"Feature","geometry":{"type":"Point","coordinates":[77.896579,29.86486]},"properties":{"title":"Indian Institute of Technology Roorkee (IITR)","icon":"town-hall"}},{"type":"Feature","geometry":{"type":"Point","coordinates":[88.377039,22.648317]},"properties":{"title":"Indian Statistical Institute","icon":"town-hall"}},{"type":"Feature","geometry":{"type":"Point","coordinates":[-93.646465,42.026619]},"properties":{"title":"Iowa State University","icon":"town-hall"}},{"type":"Feature","geometry":{"type":"Point","coordinates":[29.02534,41.105594]},"properties":{"title":"Istanbul Technical University","icon":"town-hall"}},{"type":"Feature","geometry":{"type":"Point","coordinates":[39.104697,22.309465]},"properties":{"title":"King Abdullah University of Science & Technology","icon":"town-hall"}},{"type":"Feature","geometry":{"type":"Point","coordinates":[128.611328,35.890052]},"properties":{"title":"Kyungpook National University","icon":"town-hall"}},{"type":"Feature","geometry":{"type":"Point","coordinates":[145.048395,-37.720727]},"properties":{"title":"La Trobe University","icon":"town-hall"}},{"type":"Feature","geometry":{"type":"Point","coordinates":[-1.224632,52.769227]},"properties":{"title":"Loughborough University","icon":"town-hall"}},{"type":"Feature","geometry":{"type":"Point","coordinates":[121.576074,24.987516]},"properties":{"title":"National Chengchi University","icon":"town-hall"}},{"type":"Feature","geometry":{"type":"Point","coordinates":[121.535498,25.042214]},"properties":{"title":"National Taipei University of Technology","icon":"town-hall"}},{"type":"Feature","geometry":{"type":"Point","coordinates":[-1.224224,51.75501]},"properties":{"title":"Oxford Brookes University","icon":"town-hall"}},{"type":"Feature","geometry":{"type":"Point","coordinates":[116.318815,39.969606]},"properties":{"title":"Renmin (People's) University of China","icon":"town-hall"}},{"type":"Feature","geometry":{"type":"Point","coordinates":[23.858641,61.449795]},"properties":{"title":"Tampere University of Technology","icon":"town-hall"}},{"type":"Feature","geometry":{"type":"Point","coordinates":[-0.341067,39.481059]},"properties":{"title":"Universitat Politècnica de València","icon":"town-hall"}},{"type":"Feature","geometry":{"type":"Point","coordinates":[-34.945093,-8.052331]},"properties":{"title":"Universidade Federal de Pernambuco (UFPE)","icon":"town-hall"}},{"type":"Feature","geometry":{"type":"Point","coordinates":[8.926734,44.414915]},"properties":{"title":"University of Genoa","icon":"town-hall"}},{"type":"Feature","geometry":{"type":"Point","coordinates":[12.597873,41.850142]},"properties":{"title":"University of Rome \"Tor Vergata\"","icon":"town-hall"}},{"type":"Feature","geometry":{"type":"Point","coordinates":[11.004551,49.59788]},"properties":{"title":"Friedrich-Alexander-Universität Erlangen-Nürnberg","icon":"town-hall"}},{"type":"Feature","geometry":{"type":"Point","coordinates":[9.98462,53.566564]},"properties":{"title":"Universität Hamburg","icon":"town-hall"}},{"type":"Feature","geometry":{"type":"Point","coordinates":[12.378461,51.338574]},"properties":{"title":"Universität  Leipzig","icon":"town-hall"}},{"type":"Feature","geometry":{"type":"Point","coordinates":[2.381794,48.829319]},"properties":{"title":"Université Paris Diderot - Paris 7","icon":"town-hall"}},{"type":"Feature","geometry":{"type":"Point","coordinates":[4.410232,51.22281]},"properties":{"title":"University of Antwerp","icon":"town-hall"}},{"type":"Feature","geometry":{"type":"Point","coordinates":[5.321755,60.387859]},"properties":{"title":"University of Bergen","icon":"town-hall"}},{"type":"Feature","geometry":{"type":"Point","coordinates":[7.438119,46.95049]},"properties":{"title":"University of Bern","icon":"town-hall"}},{"type":"Feature","geometry":{"type":"Point","coordinates":[0.947207,51.877726]},"properties":{"title":"University of Essex","icon":"town-hall"}},{"type":"Feature","geometry":{"type":"Point","coordinates":[1.071629,51.298536]},"properties":{"title":"University of Kent","icon":"town-hall"}},{"type":"Feature","geometry":{"type":"Point","coordinates":[9.213452,45.518383]},"properties":{"title":"University of Milano-Bicocca","icon":"town-hall"}},{"type":"Feature","geometry":{"type":"Point","coordinates":[-86.235339,41.705572]},"properties":{"title":"University of Notre Dame","icon":"town-hall"}},{"type":"Feature","geometry":{"type":"Point","coordinates":[-2.792752,56.341693]},"properties":{"title":"University of St Andrews","icon":"town-hall"}},{"type":"Feature","geometry":{"type":"Point","coordinates":[-83.929456,35.954401]},"properties":{"title":"The University of Tennessee, Knoxville","icon":"town-hall"}},{"type":"Feature","geometry":{"type":"Point","coordinates":[-96.750099,32.985762]},"properties":{"title":"University of Texas Dallas","icon":"town-hall"}},{"type":"Feature","geometry":{"type":"Point","coordinates":[140.103961,36.108722]},"properties":{"title":"University of Tsukuba","icon":"town-hall"}},{"type":"Feature","geometry":{"type":"Point","coordinates":[6.852413,52.241033]},"properties":{"title":"University of Twente","icon":"town-hall"}},{"type":"Feature","geometry":{"type":"Point","coordinates":[-111.842102,40.764937]},"properties":{"title":"University of Utah","icon":"town-hall"}},{"type":"Feature","geometry":{"type":"Point","coordinates":[21.008086,52.221201]},"properties":{"title":"Warsaw University of Technology","icon":"town-hall"}},{"type":"Feature","geometry":{"type":"Point","coordinates":[-90.310796,38.648789]},"properties":{"title":"Washington University in St. Louis","icon":"town-hall"}},{"type":"Feature","geometry":{"type":"Point","coordinates":[7.613183,51.963571]},"properties":{"title":"Westfälische Wilhelms-Universität Münster","icon":"town-hall"}},{"type":"Feature","geometry":{"type":"Point","coordinates":[108.835942,34.123396]},"properties":{"title":"Xidian University","icon":"town-hall"}},{"type":"Feature","geometry":{"type":"Point","coordinates":[23.732435,37.994081]},"properties":{"title":"Athens University of Economics and Business","icon":"town-hall"}},{"type":"Feature","geometry":{"type":"Point","coordinates":[107.610659,-6.89148]},"properties":{"title":"Bandung Institute of Technology (ITB)","icon":"town-hall"}},{"type":"Feature","geometry":{"type":"Point","coordinates":[32.747596,39.874615]},"properties":{"title":"Bilkent University","icon":"town-hall"}},{"type":"Feature","geometry":{"type":"Point","coordinates":[31.208574,30.027337]},"properties":{"title":"Cairo University","icon":"town-hall"}},{"type":"Feature","geometry":{"type":"Point","coordinates":[-75.69602,45.387581]},"properties":{"title":"Carleton University","icon":"town-hall"}},{"type":"Feature","geometry":{"type":"Point","coordinates":[126.956954,37.504147]},"properties":{"title":"Chung-Ang University (CAU)","icon":"town-hall"}},{"type":"Feature","geometry":{"type":"Point","coordinates":[-73.947785,40.771284]},"properties":{"title":"City University of New York","icon":"town-hall"}},{"type":"Feature","geometry":{"type":"Point","coordinates":[73.246551,34.19768]},"properties":{"title":"COMSATS Institute of Information Technology","icon":"town-hall"}},{"type":"Feature","geometry":{"type":"Point","coordinates":[-0.629308,52.074397]},"properties":{"title":"Cranfield University","icon":"town-hall"}},{"type":"Feature","geometry":{"type":"Point","coordinates":[-1.578203,54.764986]},"properties":{"title":"Durham University","icon":"town-hall"}},{"type":"Feature","geometry":{"type":"Point","coordinates":[-84.298489,30.441878]},"properties":{"title":"Florida State University","icon":"town-hall"}},{"type":"Feature","geometry":{"type":"Point","coordinates":[-77.312089,38.831554]},"properties":{"title":"George Mason University","icon":"town-hall"}},{"type":"Feature","geometry":{"type":"Point","coordinates":[-77.048599,38.899715]},"properties":{"title":"George Washington University","icon":"town-hall"}},{"type":"Feature","geometry":{"type":"Point","coordinates":[-77.072258,38.907609]},"properties":{"title":"Georgetown University","icon":"town-hall"}},{"type":"Feature","geometry":{"type":"Point","coordinates":[-0.035408,51.474271]},"properties":{"title":"Goldsmiths, University of London","icon":"town-hall"}},{"type":"Feature","geometry":{"type":"Point","coordinates":[5.717309,45.191105]},"properties":{"title":"Institut polytechnique de Grenoble - Grenoble Institute of Technology","icon":"town-hall"}},{"type":"Feature","geometry":{"type":"Point","coordinates":[-3.320349,55.90966]},"properties":{"title":"Heriot-Watt University","icon":"town-hall"}},{"type":"Feature","geometry":{"type":"Point","coordinates":[30.294778,59.944747]},"properties":{"title":"ITMO University","icon":"town-hall"}},{"type":"Feature","geometry":{"type":"Point","coordinates":[-0.303931,51.403113]},"properties":{"title":"Kingston University, London","icon":"town-hall"}},{"type":"Feature","geometry":{"type":"Point","coordinates":[5.686402,50.847142]},"properties":{"title":"Maastricht University","icon":"town-hall"}},{"type":"Feature","geometry":{"type":"Point","coordinates":[175.619553,-40.386765]},"properties":{"title":"Massey University","icon":"town-hall"}},{"type":"Feature","geometry":{"type":"Point","coordinates":[120.472883,23.563376]},"properties":{"title":"National Chung Cheng University","icon":"town-hall"}},{"type":"Feature","geometry":{"type":"Point","coordinates":[37.633073,55.761305]},"properties":{"title":"National Research University Higher School of Economics (HSE, Moscow)","icon":"town-hall"}},{"type":"Feature","geometry":{"type":"Point","coordinates":[121.527532,25.02606]},"properties":{"title":"National Taiwan Normal University","icon":"town-hall"}},{"type":"Feature","geometry":{"type":"Point","coordinates":[129.079775,35.233885]},"properties":{"title":"Pusan National University","icon":"town-hall"}},{"type":"Feature","geometry":{"type":"Point","coordinates":[5.856888,51.819315]},"properties":{"title":"Radboud University","icon":"town-hall"}},{"type":"Feature","geometry":{"type":"Point","coordinates":[7.261609,51.445666]},"properties":{"title":"Ruhr-Universität Bochum","icon":"town-hall"}},{"type":"Feature","geometry":{"type":"Point","coordinates":[117.029014,36.64893]},"properties":{"title":"Shandong University","icon":"town-hall"}},{"type":"Feature","geometry":{"type":"Point","coordinates":[118.794211,32.055982]},"properties":{"title":"Southeast University","icon":"town-hall"}},{"type":"Feature","geometry":{"type":"Point","coordinates":[-73.123389,40.912376]},"properties":{"title":"Stony Brook University, State University of New York","icon":"town-hall"}},{"type":"Feature","geometry":{"type":"Point","coordinates":[-76.135116,43.039153]},"properties":{"title":"Syracuse University","icon":"town-hall"}},{"type":"Feature","geometry":{"type":"Point","coordinates":[10.529714,52.273498]},"properties":{"title":"Technische Universität Braunschweig","icon":"town-hall"}},{"type":"Feature","geometry":{"type":"Point","coordinates":[-0.710477,52.025091]},"properties":{"title":"The Open University","icon":"town-hall"}},{"type":"Feature","geometry":{"type":"Point","coordinates":[-5.991231,37.380758]},"properties":{"title":"Universidad de Sevilla","icon":"town-hall"}},{"type":"Feature","geometry":{"type":"Point","coordinates":[-71.595613,-33.03473]},"properties":{"title":"Universidad Técnica Federico Santa María (USM)","icon":"town-hall"}},{"type":"Feature","geometry":{"type":"Point","coordinates":[-48.519586,-27.600361]},"properties":{"title":"Universidade Federal de Santa Catarina","icon":"town-hall"}},{"type":"Feature","geometry":{"type":"Point","coordinates":[7.688901,45.069428]},"properties":{"title":"University of Turin","icon":"town-hall"}},{"type":"Feature","geometry":{"type":"Point","coordinates":[6.801008,51.427717]},"properties":{"title":"Universität Duisburg-Essen","icon":"town-hall"}},{"type":"Feature","geometry":{"type":"Point","coordinates":[8.667763,50.127068]},"properties":{"title":"Universität Frankfurt am Main","icon":"town-hall"}},{"type":"Feature","geometry":{"type":"Point","coordinates":[2.273451,48.870029]},"properties":{"title":"Université Paris Dauphine","icon":"town-hall"}},{"type":"Feature","geometry":{"type":"Point","coordinates":[-78.78897,43.000809]},"properties":{"title":"University at Buffalo SUNY","icon":"town-hall"}},{"type":"Feature","geometry":{"type":"Point","coordinates":[-2.101526,57.16476]},"properties":{"title":"University of Aberdeen","icon":"town-hall"}},{"type":"Feature","geometry":{"type":"Point","coordinates":[-2.327263,51.378116]},"properties":{"title":"University of Bath","icon":"town-hall"}},{"type":"Feature","geometry":{"type":"Point","coordinates":[18.461199,-33.957652]},"properties":{"title":"University of Cape Town","icon":"town-hall"}},{"type":"Feature","geometry":{"type":"Point","coordinates":[5.948386,49.504254]},"properties":{"title":"University of Luxembourg","icon":"town-hall"}},{"type":"Feature","geometry":{"type":"Point","coordinates":[25.466294,65.059318]},"properties":{"title":"University of Oulu","icon":"town-hall"}},{"type":"Feature","geometry":{"type":"Point","coordinates":[-77.626003,43.130553]},"properties":{"title":"University of Rochester","icon":"town-hall"}},{"type":"Feature","geometry":{"type":"Point","coordinates":[-4.242854,55.862828]},"properties":{"title":"University of Strathclyde","icon":"town-hall"}},{"type":"Feature","geometry":{"type":"Point","coordinates":[-123.311693,48.463407]},"properties":{"title":"Victoria University","icon":"town-hall"}},{"type":"Feature","geometry":{"type":"Point","coordinates":[-117.154212,46.731923]},"properties":{"title":"Washington State University","icon":"town-hall"}},{"type":"Feature","geometry":{"type":"Point","coordinates":[17.060158,51.108673]},"properties":{"title":"Wroclaw University of Technology","icon":"town-hall"}},{"type":"Feature","geometry":{"type":"Point","coordinates":[14.4142,50.081614]},"properties":{"title":"Academy of Sciences of the Czech Republic","icon":"town-hall"}},{"type":"Feature","geometry":{"type":"Point","coordinates":[80.238539,13.012863]},"properties":{"title":"Anna University","icon":"town-hall"}},{"type":"Feature","geometry":{"type":"Point","coordinates":[34.843088,32.069199]},"properties":{"title":"Bar-Ilan University","icon":"town-hall"}},{"type":"Feature","geometry":{"type":"Point","coordinates":[-76.713378,37.271674]},"properties":{"title":"College of William & Mary","icon":"town-hall"}},{"type":"Feature","geometry":{"type":"Point","coordinates":[-63.591656,44.636581]},"properties":{"title":"Dalhousie University","icon":"town-hall"}},{"type":"Feature","geometry":{"type":"Point","coordinates":[121.529021,38.880381]},"properties":{"title":"Dalian University of Technology","icon":"town-hall"}},{"type":"Feature","geometry":{"type":"Point","coordinates":[2.327331,48.788895]},"properties":{"title":"Ecole Normale Supérieure de Cachan","icon":"town-hall"}},{"type":"Feature","geometry":{"type":"Point","coordinates":[4.826911,45.729835]},"properties":{"title":"École Normale Supérieure de Lyon","icon":"town-hall"}},{"type":"Feature","geometry":{"type":"Point","coordinates":[126.946829,37.561858]},"properties":{"title":"Ewha Womans University","icon":"town-hall"}},{"type":"Feature","geometry":{"type":"Point","coordinates":[120.646705,24.178816]},"properties":{"title":"Feng Chia University","icon":"town-hall"}},{"type":"Feature","geometry":{"type":"Point","coordinates":[91.692024,26.190252]},"properties":{"title":"Indian Institute of Technology Guwahati (IITG)","icon":"town-hall"}},{"type":"Feature","geometry":{"type":"Point","coordinates":[101.73664,3.251543]},"properties":{"title":"International Islamic University Malaysia (IIUM)","icon":"town-hall"}},{"type":"Feature","geometry":{"type":"Point","coordinates":[88.371349,22.499425]},"properties":{"title":"Jadavpur University","icon":"town-hall"}},{"type":"Feature","geometry":{"type":"Point","coordinates":[125.348658,43.873742]},"properties":{"title":"Jilin University","icon":"town-hall"}},{"type":"Feature","geometry":{"type":"Point","coordinates":[135.235395,34.725619]},"properties":{"title":"Kobe University","icon":"town-hall"}},{"type":"Feature","geometry":{"type":"Point","coordinates":[127.079343,37.540762]},"properties":{"title":"Konkuk University","icon":"town-hall"}},{"type":"Feature","geometry":{"type":"Point","coordinates":[74.410753,31.470414]},"properties":{"title":"Lahore University of Management Sciences (LUMS)","icon":"town-hall"}},{"type":"Feature","geometry":{"type":"Point","coordinates":[30.372899,60.007357]},"properties":{"title":"Peter the Great Saint-Petersburg Polytechnic University","icon":"town-hall"}},{"type":"Feature","geometry":{"type":"Point","coordinates":[-51.173491,-30.059345]},"properties":{"title":"Pontifícia Universidade Católica do Rio Grande do Sul (PUCRS)","icon":"town-hall"}},{"type":"Feature","geometry":{"type":"Point","coordinates":[73.138096,33.746223]},"properties":{"title":"Quaid-i-Azam University","icon":"town-hall"}},{"type":"Feature","geometry":{"type":"Point","coordinates":[127.073139,37.55026]},"properties":{"title":"Sejong University","icon":"town-hall"}},{"type":"Feature","geometry":{"type":"Point","coordinates":[113.344683,23.151326]},"properties":{"title":"South China University of Technology","icon":"town-hall"}},{"type":"Feature","geometry":{"type":"Point","coordinates":[-74.025486,40.745079]},"properties":{"title":"Stevens Institute of Technology","icon":"town-hall"}},{"type":"Feature","geometry":{"type":"Point","coordinates":[121.504589,31.28231]},"properties":{"title":"Tongji University","icon":"town-hall"}},{"type":"Feature","geometry":{"type":"Point","coordinates":[-74.064843,4.602844]},"properties":{"title":"Universidad de los Andes","icon":"town-hall"}},{"type":"Feature","geometry":{"type":"Point","coordinates":[11.259765,43.777643]},"properties":{"title":"University of Florence","icon":"town-hall"}},{"type":"Feature","geometry":{"type":"Point","coordinates":[9.156233,45.187876]},"properties":{"title":"Università degli Studi di Pavia","icon":"town-hall"}},{"type":"Feature","geometry":{"type":"Point","coordinates":[12.479562,41.862053]},"properties":{"title":"Università degli studi Roma Tre","icon":"town-hall"}},{"type":"Feature","geometry":{"type":"Point","coordinates":[8.496345,52.035418]},"properties":{"title":"Universität Bielefeld","icon":"town-hall"}},{"type":"Feature","geometry":{"type":"Point","coordinates":[8.85204,53.106758]},"properties":{"title":"Universität Bremen","icon":"town-hall"}},{"type":"Feature","geometry":{"type":"Point","coordinates":[11.383801,47.263354]},"properties":{"title":"Universität Innsbruck","icon":"town-hall"}},{"type":"Feature","geometry":{"type":"Point","coordinates":[9.186878,47.689426]},"properties":{"title":"Universität Konstanz","icon":"town-hall"}},{"type":"Feature","geometry":{"type":"Point","coordinates":[7.289682,43.709948]},"properties":{"title":"Université Nice Sophia Antipolis","icon":"town-hall"}},{"type":"Feature","geometry":{"type":"Point","coordinates":[2.344468,48.846937]},"properties":{"title":"Université Paris 1 Panthéon-Sorbonne","icon":"town-hall"}},{"type":"Feature","geometry":{"type":"Point","coordinates":[1.468859,43.560378]},"properties":{"title":"Université Paul Sabatier Toulouse III","icon":"town-hall"}},{"type":"Feature","geometry":{"type":"Point","coordinates":[8.958223,46.010918]},"properties":{"title":"USI Università della Svizzera italiana / USI University of Lugano","icon":"town-hall"}},{"type":"Feature","geometry":{"type":"Point","coordinates":[-72.253981,41.807741]},"properties":{"title":"University of Connecticut","icon":"town-hall"}},{"type":"Feature","geometry":{"type":"Point","coordinates":[77.163828,28.584252]},"properties":{"title":"University of Delhi","icon":"town-hall"}},{"type":"Feature","geometry":{"type":"Point","coordinates":[-95.342233,29.719949]},"properties":{"title":"University of Houston","icon":"town-hall"}},{"type":"Feature","geometry":{"type":"Point","coordinates":[-8.574559,52.668738]},"properties":{"title":"University of Limerick","icon":"town-hall"}},{"type":"Feature","geometry":{"type":"Point","coordinates":[-71.036738,42.314841]},"properties":{"title":"University of Massachusetts - Boston","icon":"town-hall"}},{"type":"Feature","geometry":{"type":"Point","coordinates":[-106.619781,35.084319]},"properties":{"title":"University of New Mexico","icon":"town-hall"}},{"type":"Feature","geometry":{"type":"Point","coordinates":[21.785369,38.28923]},"properties":{"title":"University of Patras","icon":"town-hall"}},{"type":"Feature","geometry":{"type":"Point","coordinates":[28.231448,-25.754549]},"properties":{"title":"University of Pretoria","icon":"town-hall"}},{"type":"Feature","geometry":{"type":"Point","coordinates":[-0.941816,51.44142]},"properties":{"title":"University of Reading","icon":"town-hall"}},{"type":"Feature","geometry":{"type":"Point","coordinates":[-0.087914,50.86709]},"properties":{"title":"University of Sussex","icon":"town-hall"}},{"type":"Feature","geometry":{"type":"Point","coordinates":[26.719866,58.381084]},"properties":{"title":"University of Tartu","icon":"town-hall"}},{"type":"Feature","geometry":{"type":"Point","coordinates":[151.025147,-33.811832]},"properties":{"title":"Western Sydney University","icon":"town-hall"}},{"type":"Feature","geometry":{"type":"Point","coordinates":[16.406479,48.214648]},"properties":{"title":"WU (Vienna University of Economics and Business)","icon":"town-hall"}},{"type":"Feature","geometry":{"type":"Point","coordinates":[19.913619,50.066886]},"properties":{"title":"AGH University of Science and Technology","icon":"town-hall"}},{"type":"Feature","geometry":{"type":"Point","coordinates":[127.046356,37.282125]},"properties":{"title":"Ajou University","icon":"town-hall"}},{"type":"Feature","geometry":{"type":"Point","coordinates":[35.479329,33.901654]},"properties":{"title":"American University of Beirut (AUB)","icon":"town-hall"}},{"type":"Feature","geometry":{"type":"Point","coordinates":[100.617353,14.076017]},"properties":{"title":"Asian Institute of Technology, Thailand","icon":"town-hall"}},{"type":"Feature","geometry":{"type":"Point","coordinates":[-0.130462,51.521975]},"properties":{"title":"Birkbeck, University of London","icon":"town-hall"}},{"type":"Feature","geometry":{"type":"Point","coordinates":[-111.649316,40.251843]},"properties":{"title":"Brigham Young University","icon":"town-hall"}},{"type":"Feature","geometry":{"type":"Point","coordinates":[127.129363,35.846829]},"properties":{"title":"Chonbuk National University","icon":"town-hall"}},{"type":"Feature","geometry":{"type":"Point","coordinates":[-105.086547,40.573436]},"properties":{"title":"Colorado State University","icon":"town-hall"}},{"type":"Feature","geometry":{"type":"Point","coordinates":[-6.266599,53.33853]},"properties":{"title":"Dublin Institute of Technology","icon":"town-hall"}},{"type":"Feature","geometry":{"type":"Point","coordinates":[-84.323999,33.792519]},"properties":{"title":"Emory University","icon":"town-hall"}},{"type":"Feature","geometry":{"type":"Point","coordinates":[19.058545,47.49057]},"properties":{"title":"Eötvös Lorànd University","icon":"town-hall"}},{"type":"Feature","geometry":{"type":"Point","coordinates":[153.053678,-27.553836]},"properties":{"title":"Griffith University","icon":"town-hall"}},{"type":"Feature","geometry":{"type":"Point","coordinates":[126.84072,35.227269]},"properties":{"title":"Gwangju Institute of Science and Technology (GIST)","icon":"town-hall"}},{"type":"Feature","geometry":{"type":"Point","coordinates":[29.066958,41.197541]},"properties":{"title":"Koc University","icon":"town-hall"}},{"type":"Feature","geometry":{"type":"Point","coordinates":[9.719699,52.382964]},"properties":{"title":"Leibniz Universität Hannover","icon":"town-hall"}},{"type":"Feature","geometry":{"type":"Point","coordinates":[22.140179,65.617996]},"properties":{"title":"Lulea University","icon":"town-hall"}},{"type":"Feature","geometry":{"type":"Point","coordinates":[118.818259,32.034905]},"properties":{"title":"Nanjing University of Aeronautics and Astronautics","icon":"town-hall"}},{"type":"Feature","geometry":{"type":"Point","coordinates":[118.855317,32.035225]},"properties":{"title":"Nanjing University of Science and Technology","icon":"town-hall"}},{"type":"Feature","geometry":{"type":"Point","coordinates":[123.418865,41.768703]},"properties":{"title":"Northeastern University (China)","icon":"town-hall"}},{"type":"Feature","geometry":{"type":"Point","coordinates":[-79.378802,43.657658]},"properties":{"title":"Ryerson University","icon":"town-hall"}},{"type":"Feature","geometry":{"type":"Point","coordinates":[29.374867,40.892883]},"properties":{"title":"Sabanci University","icon":"town-hall"}},{"type":"Feature","geometry":{"type":"Point","coordinates":[-75.155351,39.981193]},"properties":{"title":"Temple University","icon":"town-hall"}},{"type":"Feature","geometry":{"type":"Point","coordinates":[-71.119023,42.407484]},"properties":{"title":"Tufts University","icon":"town-hall"}},{"type":"Feature","geometry":{"type":"Point","coordinates":[-100.311904,25.726406]},"properties":{"title":"Universidad Autónoma de Nuevo León","icon":"town-hall"}},{"type":"Feature","geometry":{"type":"Point","coordinates":[-103.358984,20.675382]},"properties":{"title":"Universidad de Guadalajara (UDG)","icon":"town-hall"}},{"type":"Feature","geometry":{"type":"Point","coordinates":[-1.65754,42.803568]},"properties":{"title":"University of Navarra","icon":"town-hall"}},{"type":"Feature","geometry":{"type":"Point","coordinates":[-48.181432,-21.793645]},"properties":{"title":"UNESP","icon":"town-hall"}},{"type":"Feature","geometry":{"type":"Point","coordinates":[-47.880245,-21.984145]},"properties":{"title":"Universidade Federal de São Carlos (UFSCAR)","icon":"town-hall"}},{"type":"Feature","geometry":{"type":"Point","coordinates":[-0.595138,44.80795]},"properties":{"title":"University of Bordeaux","icon":"town-hall"}},{"type":"Feature","geometry":{"type":"Point","coordinates":[3.872064,43.61566]},"properties":{"title":"Université de Montpellier","icon":"town-hall"}},{"type":"Feature","geometry":{"type":"Point","coordinates":[7.766455,48.579069]},"properties":{"title":"Université de Strasbourg","icon":"town-hall"}},{"type":"Feature","geometry":{"type":"Point","coordinates":[3.138063,50.609049]},"properties":{"title":"Université Lille 1, Sciences et Technologies","icon":"town-hall"}},{"type":"Feature","geometry":{"type":"Point","coordinates":[2.340761,48.851251]},"properties":{"title":"Université Paris Descartes","icon":"town-hall"}},{"type":"Feature","geometry":{"type":"Point","coordinates":[101.731081,2.977345]},"properties":{"title":"Universiti Tenaga Nasional (UNITEN)","icon":"town-hall"}},{"type":"Feature","geometry":{"type":"Point","coordinates":[101.139772,4.33939]},"properties":{"title":"Universiti Tunku Abdul Rahman (UTAR)","icon":"town-hall"}},{"type":"Feature","geometry":{"type":"Point","coordinates":[100.505432,6.45751]},"properties":{"title":"Universiti Utara Malaysia (UUM)","icon":"town-hall"}},{"type":"Feature","geometry":{"type":"Point","coordinates":[7.5826,47.560253]},"properties":{"title":"University of Basel","icon":"town-hall"}},{"type":"Feature","geometry":{"type":"Point","coordinates":[-81.20006,28.602427]},"properties":{"title":"University of Central Florida","icon":"town-hall"}},{"type":"Feature","geometry":{"type":"Point","coordinates":[104.100361,30.675104]},"properties":{"title":"University of Electronic Science and Technology of China","icon":"town-hall"}},{"type":"Feature","geometry":{"type":"Point","coordinates":[-3.535147,50.737137]},"properties":{"title":"The University of Exeter","icon":"town-hall"}},{"type":"Feature","geometry":{"type":"Point","coordinates":[35.019518,32.76143]},"properties":{"title":"University of Haifa","icon":"town-hall"}},{"type":"Feature","geometry":{"type":"Point","coordinates":[-95.255796,38.954344]},"properties":{"title":"University of Kansas","icon":"town-hall"}},{"type":"Feature","geometry":{"type":"Point","coordinates":[-1.124632,52.621139]},"properties":{"title":"University of Leicester","icon":"town-hall"}},{"type":"Feature","geometry":{"type":"Point","coordinates":[14.504155,46.049194]},"properties":{"title":"University of Ljubljana","icon":"town-hall"}},{"type":"Feature","geometry":{"type":"Point","coordinates":[-76.705714,39.251835]},"properties":{"title":"University of Maryland, Baltimore County","icon":"town-hall"}},{"type":"Feature","geometry":{"type":"Point","coordinates":[-80.277125,25.719168]},"properties":{"title":"University of Miami","icon":"town-hall"}},{"type":"Feature","geometry":{"type":"Point","coordinates":[-96.700476,40.820197]},"properties":{"title":"University of Nebraska-Lincoln","icon":"town-hall"}},{"type":"Feature","geometry":{"type":"Point","coordinates":[116.357096,39.990249]},"properties":{"title":"University of Science and Technology Beijing","icon":"town-hall"}},{"type":"Feature","geometry":{"type":"Point","coordinates":[-82.413854,28.058703]},"properties":{"title":"University of South Florida","icon":"town-hall"}},{"type":"Feature","geometry":{"type":"Point","coordinates":[-71.806339,42.274637]},"properties":{"title":"Worcester Polytechnic Institute","icon":"town-hall"}},{"type":"Feature","geometry":{"type":"Point","coordinates":[118.097855,24.437348]},"properties":{"title":"Xiamen University","icon":"town-hall"}}]}